Cidade;PIB;Latitude;Longitude;
Xangai;4,32;31.2304;121.4737;
Pequim;4,16;39.9042;116.4074;
Shenzhen;3,07;22.5429;114.0596;
Guangzhou;3,03;23.1291;113.2644;
Chongqing;2,43;29.5639;106.5504;
Suzhou;2,24;31.2989;120.5853;
Chengdu;2,04;30.5728;104.0668;
Hangzhou;1,81;30.2741;120.1551;
Wuhan;1,77;30.5931;114.3054;
Tianjin;1,64;39.3434;117.3616;
